[
    {
      "nome": "Estação das Docas",
      "lat": -1.4488533904318324,
      "lng": -48.49989692809441
    },
    {
      "nome": "Mangal das Garças",
      "lat": -1.4635253579158258,
      "lng": -48.50499428761744
    },
    {
      "nome": "Basílica de Nossa Senhora de Nazaré",
      "lat": -1.4526046446561862,
      "lng": -48.48075195137654
    },
    {
      "nome": "Teatro da Paz",
      "lat": -1.4527373923420752,
      "lng": -48.4937036759763
    },
    {
      "nome": "Museu Paraense Emílio Goeldi",
      "lat": -1.4510541544946864,
      "lng": -48.47462129101792
    },
    {
      "nome": "Catedral Metropolitana de Belém",
      "lat": -1.455612314948729,
      "lng": -48.504185403494496
    },
    {
      "nome": "Forte do Presépio",
      "lat": -1.454139465548339,
      "lng": -48.50476543603295
    },
    {
      "nome": "Mercado do Ver o Peso",
      "lat": -1.452172041521301,
      "lng": -48.503407582063645
    },
    {
      "nome": "Parque Cemitério Soledade",
      "lat": -1.4575354897939932,
      "lng": -48.489221672807474
    },
    {
      "nome": "Solar do Barão de Guajará",
      "lat": -1.455298116411221,
      "lng": -48.503516751376424
    },
    {
      "nome": "Igreja Santo Alexandre - Museu de Arte Sacra",
      "lat": -1.455037949865587,
      "lng": -48.50459856662588
    },
    {
      "nome": "Palacete das Onze Janelas",
      "lat": -1.455124202910323,
      "lng": -48.50569566411535
    }
    
  ]
  